0	100	M100:VFR_HUD.alt	0.946462
156	100	M100:VFR_HUD.alt	0.967968
532	100	M100:VFR_HUD.alt	0.981001
1079	100	M100:VFR_HUD.alt	0.971042
1628	100	M100:VFR_HUD.alt	0.928839
2164	100	M100:VFR_HUD.alt	0.903455
2554	100	M100:VFR_HUD.alt	0.888384
3087	100	M100:VFR_HUD.alt	0.882599
3696	100	M100:VFR_HUD.alt	0.878615
4025	100	M100:VFR_HUD.alt	0.875676
4574	100	M100:VFR_HUD.alt	0.832461
5121	100	M100:VFR_HUD.alt	0.825003
5529	100	M100:VFR_HUD.alt	0.821042
6060	100	M100:VFR_HUD.alt	0.802763
6594	100	M100:VFR_HUD.alt	0.797499
7141	100	M100:VFR_HUD.alt	0.78469
7532	100	M100:VFR_HUD.alt	0.765341
8082	100	M100:VFR_HUD.alt	0.773671
8613	100	M100:VFR_HUD.alt	0.769616
9163	100	M100:VFR_HUD.alt	0.762146
9710	100	M100:VFR_HUD.alt	0.735077
10053	100	M100:VFR_HUD.alt	0.694183
10603	100	M100:VFR_HUD.alt	0.672709
11182	100	M100:VFR_HUD.alt	0.65433
11526	100	M100:VFR_HUD.alt	0.651465
12074	100	M100:VFR_HUD.alt	0.64223
12624	100	M100:VFR_HUD.alt	0.65792
13155	100	M100:VFR_HUD.alt	0.667624
13702	100	M100:VFR_HUD.alt	0.637403
14031	100	M100:VFR_HUD.alt	0.673034
14641	100	M100:VFR_HUD.alt	0.697756
15172	100	M100:VFR_HUD.alt	0.684737
15719	100	M100:VFR_HUD.alt	0.683279
16047	100	M100:VFR_HUD.alt	0.683973
16594	100	M100:VFR_HUD.alt	0.659368
17142	100	M100:VFR_HUD.alt	0.682151
17550	100	M100:VFR_HUD.alt	0.73626
18083	100	M100:VFR_HUD.alt	0.800366
18631	100	M100:VFR_HUD.alt	0.838377
19023	100	M100:VFR_HUD.alt	0.861608
19538	100	M100:VFR_HUD.alt	0.860951
20071	100	M100:VFR_HUD.alt	0.828596
20618	100	M100:VFR_HUD.alt	0.832921
21102	100	M100:VFR_HUD.alt	0.838393
21650	100	M100:VFR_HUD.alt	0.84942
22197	100	M100:VFR_HUD.alt	0.789263
22557	100	M100:VFR_HUD.alt	0.818017
23088	100	M100:VFR_HUD.alt	0.833975
23621	100	M100:VFR_HUD.alt	0.790113
24215	100	M100:VFR_HUD.alt	0.758616
24560	100	M100:VFR_HUD.alt	0.738275
25110	100	M100:VFR_HUD.alt	0.720549
25641	100	M100:VFR_HUD.alt	0.73875
26190	100	M100:VFR_HUD.alt	0.752479
26645	100	M100:VFR_HUD.alt	0.762644
27193	100	M100:VFR_HUD.alt	0.764568
27538	100	M100:VFR_HUD.alt	0.773961
28072	100	M100:VFR_HUD.alt	0.795219
28635	100	M100:VFR_HUD.alt	0.796218
29120	100	M100:VFR_HUD.alt	0.789106
29575	100	M100:VFR_HUD.alt	0.792829
30091	100	M100:VFR_HUD.alt	0.828518
30638	100	M100:VFR_HUD.alt	0.825995
31044	100	M100:VFR_HUD.alt	0.829843
31578	100	M100:VFR_HUD.alt	0.833719
32125	100	M100:VFR_HUD.alt	0.828344
32675	100	M100:VFR_HUD.alt	0.828084
33112	100	M100:VFR_HUD.alt	0.859322
33644	100	M100:VFR_HUD.alt	0.887135
34176	100	M100:VFR_HUD.alt	0.916306
34739	100	M100:VFR_HUD.alt	0.950088
35083	100	M100:VFR_HUD.alt	1.01096
35614	100	M100:VFR_HUD.alt	1.03373
36209	100	M100:VFR_HUD.alt	1.0375
36552	100	M100:VFR_HUD.alt	1.03236
37056	100	M100:VFR_HUD.alt	1.04143
37555	100	M100:VFR_HUD.alt	1.04807
38102	100	M100:VFR_HUD.alt	1.04136
38649	100	M100:VFR_HUD.alt	1.02926
39185	100	M100:VFR_HUD.alt	1.01996
39733	100	M100:VFR_HUD.alt	1.05178
40077	100	M100:VFR_HUD.alt	1.04118
40609	100	M100:VFR_HUD.alt	1.05135
41141	100	M100:VFR_HUD.alt	1.05593
41567	100	M100:VFR_HUD.alt	1.05529
42082	100	M100:VFR_HUD.alt	1.0009
42632	100	M100:VFR_HUD.alt	0.954112
43167	100	M100:VFR_HUD.alt	0.93328
43575	100	M100:VFR_HUD.alt	0.951082
44106	100	M100:VFR_HUD.alt	0.902014
44654	100	M100:VFR_HUD.alt	0.906429
45205	100	M100:VFR_HUD.alt	0.944029
45579	100	M100:VFR_HUD.alt	0.929651
46128	100	M100:VFR_HUD.alt	0.919519
46675	100	M100:VFR_HUD.alt	0.948254
47219	100	M100:VFR_HUD.alt	0.996401
47578	100	M100:VFR_HUD.alt	1.01773
48109	100	M100:VFR_HUD.alt	1.00495
48656	100	M100:VFR_HUD.alt	1.03052
49234	100	M100:VFR_HUD.alt	1.09745
49594	100	M100:VFR_HUD.alt	1.10561
50125	100	M100:VFR_HUD.alt	1.08862
50627	100	M100:VFR_HUD.alt	1.13177
51176	100	M100:VFR_HUD.alt	1.13653
51723	100	M100:VFR_HUD.alt	1.11569
52051	100	M100:VFR_HUD.alt	1.1369
52584	100	M100:VFR_HUD.alt	1.1378
53133	100	M100:VFR_HUD.alt	1.13654
53728	100	M100:VFR_HUD.alt	1.10665
54075	100	M100:VFR_HUD.alt	1.08655
54624	100	M100:VFR_HUD.alt	1.08507
55160	100	M100:VFR_HUD.alt	1.10061
55550	100	M100:VFR_HUD.alt	1.11418
56099	100	M100:VFR_HUD.alt	1.16155
56647	100	M100:VFR_HUD.alt	1.21016
57182	100	M100:VFR_HUD.alt	1.21179
57560	100	M100:VFR_HUD.alt	1.21106
58123	100	M100:VFR_HUD.alt	1.21297
58655	100	M100:VFR_HUD.alt	1.21095
59251	100	M100:VFR_HUD.alt	1.1983
59751	100	M100:VFR_HUD.alt	1.17582
60095	100	M100:VFR_HUD.alt	1.2081
60704	100	M100:VFR_HUD.alt	1.20945
61221	100	M100:VFR_HUD.alt	1.20384
61567	100	M100:VFR_HUD.alt	1.19496
62118	100	M100:VFR_HUD.alt	1.19518
62654	100	M100:VFR_HUD.alt	1.20709
63187	100	M100:VFR_HUD.alt	1.20104
63750	100	M100:VFR_HUD.alt	1.2175
64081	100	M100:VFR_HUD.alt	1.16081
64676	100	M100:VFR_HUD.alt	1.15628
65208	100	M100:VFR_HUD.alt	1.16678
65696	100	M100:VFR_HUD.alt	1.18901
66092	100	M100:VFR_HUD.alt	1.17872
66645	100	M100:VFR_HUD.alt	1.17476
67168	100	M100:VFR_HUD.alt	1.16541
67575	100	M100:VFR_HUD.alt	1.14635
68140	100	M100:VFR_HUD.alt	1.13294
68660	100	M100:VFR_HUD.alt	1.14682
69163	100	M100:VFR_HUD.alt	1.17509
69602	100	M100:VFR_HUD.alt	1.18129
70150	100	M100:VFR_HUD.alt	1.18785
70683	100	M100:VFR_HUD.alt	1.20976
71235	100	M100:VFR_HUD.alt	1.2018
71580	100	M100:VFR_HUD.alt	1.19374
72163	100	M100:VFR_HUD.alt	1.18401
72701	100	M100:VFR_HUD.alt	1.18432
73252	100	M100:VFR_HUD.alt	1.20666
73645	100	M100:VFR_HUD.alt	1.22568
74130	100	M100:VFR_HUD.alt	1.22054
74692	100	M100:VFR_HUD.alt	1.20972
75227	100	M100:VFR_HUD.alt	1.22641
75607	100	M100:VFR_HUD.alt	1.20677
76154	100	M100:VFR_HUD.alt	1.19115
76702	100	M100:VFR_HUD.alt	1.18674
77236	100	M100:VFR_HUD.alt	1.18682
77599	100	M100:VFR_HUD.alt	1.1746
78132	100	M100:VFR_HUD.alt	1.14826
78665	100	M100:VFR_HUD.alt	1.13413
79202	100	M100:VFR_HUD.alt	1.12685
79612	100	M100:VFR_HUD.alt	1.10926
80145	100	M100:VFR_HUD.alt	1.11209
80680	100	M100:VFR_HUD.alt	1.09467
81091	100	M100:VFR_HUD.alt	1.0623
81628	100	M100:VFR_HUD.alt	1.07135
82178	100	M100:VFR_HUD.alt	1.03928
82711	100	M100:VFR_HUD.alt	1.04709
83262	100	M100:VFR_HUD.alt	1.03092
83640	100	M100:VFR_HUD.alt	1.00761
84189	100	M100:VFR_HUD.alt	0.994528
84739	100	M100:VFR_HUD.alt	1.01336
85228	100	M100:VFR_HUD.alt	1.0128
85782	100	M100:VFR_HUD.alt	1.03174
86127	100	M100:VFR_HUD.alt	1.03504
86675	100	M100:VFR_HUD.alt	1.05149
87225	100	M100:VFR_HUD.alt	1.06923
87760	100	M100:VFR_HUD.alt	1.08555
88141	100	M100:VFR_HUD.alt	1.0888
88690	100	M100:VFR_HUD.alt	1.09782
89225	100	M100:VFR_HUD.alt	1.11961
89778	100	M100:VFR_HUD.alt	1.13196
90123	100	M100:VFR_HUD.alt	1.12638
90656	100	M100:VFR_HUD.alt	1.14625
91197	100	M100:VFR_HUD.alt	1.17257
91610	100	M100:VFR_HUD.alt	1.18916
92130	100	M100:VFR_HUD.alt	1.19109
92678	100	M100:VFR_HUD.alt	1.18167
93213	100	M100:VFR_HUD.alt	1.18069
93609	100	M100:VFR_HUD.alt	1.19184
94156	100	M100:VFR_HUD.alt	1.20539
94752	100	M100:VFR_HUD.alt	1.21828
95239	100	M100:VFR_HUD.alt	1.19298
95631	100	M100:VFR_HUD.alt	1.17436
96185	100	M100:VFR_HUD.alt	1.16949
96706	100	M100:VFR_HUD.alt	1.17736
97254	100	M100:VFR_HUD.alt	1.15848
97614	100	M100:VFR_HUD.alt	1.14486
98167	100	M100:VFR_HUD.alt	1.13577
98701	100	M100:VFR_HUD.alt	1.12798
99279	100	M100:VFR_HUD.alt	1.1123
99623	100	M100:VFR_HUD.alt	1.09836
100170	100	M100:VFR_HUD.alt	1.09678
100721	100	M100:VFR_HUD.alt	1.07082
101254	100	M100:VFR_HUD.alt	1.06856
101599	100	M100:VFR_HUD.alt	1.07931
102134	100	M100:VFR_HUD.alt	1.04823
102731	100	M100:VFR_HUD.alt	1.05727
103280	100	M100:VFR_HUD.alt	1.04034
103612	100	M100:VFR_HUD.alt	1.03755
104144	100	M100:VFR_HUD.alt	1.029
104707	100	M100:VFR_HUD.alt	1.03882
105285	100	M100:VFR_HUD.alt	1.06225
105644	100	M100:VFR_HUD.alt	1.06134
106181	100	M100:VFR_HUD.alt	1.08856
106717	100	M100:VFR_HUD.alt	1.08321
107125	100	M100:VFR_HUD.alt	1.08531
107657	100	M100:VFR_HUD.alt	1.11059
108205	100	M100:VFR_HUD.alt	1.13158
108757	100	M100:VFR_HUD.alt	1.15108
109292	100	M100:VFR_HUD.alt	1.16624
109636	100	M100:VFR_HUD.alt	1.18888
110230	100	M100:VFR_HUD.alt	1.22592
110778	100	M100:VFR_HUD.alt	1.23993
111310	100	M100:VFR_HUD.alt	1.25393
111658	100	M100:VFR_HUD.alt	1.28827
112207	100	M100:VFR_HUD.alt	1.31742
112746	100	M100:VFR_HUD.alt	1.37087
113280	100	M100:VFR_HUD.alt	1.37753
113718	100	M100:VFR_HUD.alt	1.39058
114203	100	M100:VFR_HUD.alt	1.39348
114769	100	M100:VFR_HUD.alt	1.42303
115254	100	M100:VFR_HUD.alt	1.41113
115633	100	M100:VFR_HUD.alt	1.43362
116180	100	M100:VFR_HUD.alt	1.44111
116733	100	M100:VFR_HUD.alt	1.39699
117130	100	M100:VFR_HUD.alt	1.38255
117650	100	M100:VFR_HUD.alt	1.37563
118183	100	M100:VFR_HUD.alt	1.36254
118699	100	M100:VFR_HUD.alt	1.35611
119138	100	M100:VFR_HUD.alt	1.35251
119688	100	M100:VFR_HUD.alt	1.36213
120238	100	M100:VFR_HUD.alt	1.37055
120775	100	M100:VFR_HUD.alt	1.35197
121326	100	M100:VFR_HUD.alt	1.36293
121706	100	M100:VFR_HUD.alt	1.38499
122239	100	M100:VFR_HUD.alt	1.38731
122806	100	M100:VFR_HUD.alt	1.39991
123139	100	M100:VFR_HUD.alt	1.41402
123693	100	M100:VFR_HUD.alt	1.42829
124271	100	M100:VFR_HUD.alt	1.40986
124771	100	M100:VFR_HUD.alt	1.4359
125164	100	M100:VFR_HUD.alt	1.42303
125697	100	M100:VFR_HUD.alt	1.43875
126235	100	M100:VFR_HUD.alt	1.44416
126785	100	M100:VFR_HUD.alt	1.45328
127128	100	M100:VFR_HUD.alt	1.48003
127678	100	M100:VFR_HUD.alt	1.45194
128199	100	M100:VFR_HUD.alt	1.42245
128809	100	M100:VFR_HUD.alt	1.43405
129137	100	M100:VFR_HUD.alt	1.44205
129685	100	M100:VFR_HUD.alt	1.4225
130232	100	M100:VFR_HUD.alt	1.3963
130732	100	M100:VFR_HUD.alt	1.38557
131175	100	M100:VFR_HUD.alt	1.38418
131712	100	M100:VFR_HUD.alt	1.38247
132263	100	M100:VFR_HUD.alt	1.37123
132689	100	M100:VFR_HUD.alt	1.37033
133189	100	M100:VFR_HUD.alt	1.37032
133728	100	M100:VFR_HUD.alt	1.38214
134277	100	M100:VFR_HUD.alt	1.38442
134826	100	M100:VFR_HUD.alt	1.38458
135171	100	M100:VFR_HUD.alt	1.3842
135705	100	M100:VFR_HUD.alt	1.38458
136287	100	M100:VFR_HUD.alt	1.36855
136648	100	M100:VFR_HUD.alt	1.37257
137198	100	M100:VFR_HUD.alt	1.39497
137734	100	M100:VFR_HUD.alt	1.38081
138273	100	M100:VFR_HUD.alt	1.36912
138759	100	M100:VFR_HUD.alt	1.36858
139165	100	M100:VFR_HUD.alt	1.3774
139748	100	M100:VFR_HUD.alt	1.38924
140298	100	M100:VFR_HUD.alt	1.40217
140628	100	M100:VFR_HUD.alt	1.40298
141195	100	M100:VFR_HUD.alt	1.38938
141716	100	M100:VFR_HUD.alt	1.39385
142251	100	M100:VFR_HUD.alt	1.36388
142661	100	M100:VFR_HUD.alt	1.35999
143256	100	M100:VFR_HUD.alt	1.35853
143725	100	M100:VFR_HUD.alt	1.37135
144276	100	M100:VFR_HUD.alt	1.38501
144669	100	M100:VFR_HUD.alt	1.36712
145222	100	M100:VFR_HUD.alt	1.36337
145771	100	M100:VFR_HUD.alt	1.38489
146305	100	M100:VFR_HUD.alt	1.41153
146651	100	M100:VFR_HUD.alt	1.42894
147245	100	M100:VFR_HUD.alt	1.41782
147795	100	M100:VFR_HUD.alt	1.43644
148328	100	M100:VFR_HUD.alt	1.44175
148673	100	M100:VFR_HUD.alt	1.43128
149221	100	M100:VFR_HUD.alt	1.42562
149768	100	M100:VFR_HUD.alt	1.41838
150316	100	M100:VFR_HUD.alt	1.40228
150692	100	M100:VFR_HUD.alt	1.38323
151240	100	M100:VFR_HUD.alt	1.3771
151788	100	M100:VFR_HUD.alt	1.39337
152319	100	M100:VFR_HUD.alt	1.378
152647	100	M100:VFR_HUD.alt	1.38938
153213	100	M100:VFR_HUD.alt	1.36922
153760	100	M100:VFR_HUD.alt	1.36748
154353	100	M100:VFR_HUD.alt	1.37846
154682	100	M100:VFR_HUD.alt	1.36129
155214	100	M100:VFR_HUD.alt	1.35784
155767	100	M100:VFR_HUD.alt	1.35739
156174	100	M100:VFR_HUD.alt	1.36715
156705	100	M100:VFR_HUD.alt	1.34287
157258	100	M100:VFR_HUD.alt	1.35236
157798	100	M100:VFR_HUD.alt	1.36808
158333	100	M100:VFR_HUD.alt	1.39133
158727	100	M100:VFR_HUD.alt	1.39746
159265	100	M100:VFR_HUD.alt	1.39616
159819	100	M100:VFR_HUD.alt	1.40327
160180	100	M100:VFR_HUD.alt	1.40125
160713	100	M100:VFR_HUD.alt	1.39876
161261	100	M100:VFR_HUD.alt	1.41113
161795	100	M100:VFR_HUD.alt	1.40861
162204	100	M100:VFR_HUD.alt	1.42001
162736	100	M100:VFR_HUD.alt	1.43312
163258	100	M100:VFR_HUD.alt	1.42824
163820	100	M100:VFR_HUD.alt	1.4756
164373	100	M100:VFR_HUD.alt	1.48201
164702	100	M100:VFR_HUD.alt	1.50535
165236	100	M100:VFR_HUD.alt	1.52001
165660	100	M100:VFR_HUD.alt	1.52118
166164	100	M100:VFR_HUD.alt	1.52156
166714	100	M100:VFR_HUD.alt	1.53125
167248	100	M100:VFR_HUD.alt	1.52471
167799	100	M100:VFR_HUD.alt	1.52152
168205	100	M100:VFR_HUD.alt	1.5517
168737	100	M100:VFR_HUD.alt	1.5608
169287	100	M100:VFR_HUD.alt	1.55653
169666	100	M100:VFR_HUD.alt	1.54241
170216	100	M100:VFR_HUD.alt	1.52277
170768	100	M100:VFR_HUD.alt	1.50877
171350	100	M100:VFR_HUD.alt	1.49238
171696	100	M100:VFR_HUD.alt	1.47957
172279	100	M100:VFR_HUD.alt	1.49319
172831	100	M100:VFR_HUD.alt	1.49483
173315	100	M100:VFR_HUD.alt	1.49483
173709	100	M100:VFR_HUD.alt	1.48325
174259	100	M100:VFR_HUD.alt	1.48213
174791	100	M100:VFR_HUD.alt	1.51367
175339	100	M100:VFR_HUD.alt	1.50857
175729	100	M100:VFR_HUD.alt	1.51308
176278	100	M100:VFR_HUD.alt	1.5139
176828	100	M100:VFR_HUD.alt	1.50353
177159	100	M100:VFR_HUD.alt	1.51792
177693	100	M100:VFR_HUD.alt	1.52312
178244	100	M100:VFR_HUD.alt	1.5377
178797	100	M100:VFR_HUD.alt	1.53614
179191	100	M100:VFR_HUD.alt	1.51729
179726	100	M100:VFR_HUD.alt	1.49826
180261	100	M100:VFR_HUD.alt	1.50088
180767	100	M100:VFR_HUD.alt	1.52578
181191	100	M100:VFR_HUD.alt	1.5469
181743	100	M100:VFR_HUD.alt	1.54948
182282	100	M100:VFR_HUD.alt	1.55701
182835	100	M100:VFR_HUD.alt	1.59558
183181	100	M100:VFR_HUD.alt	1.61345
183760	100	M100:VFR_HUD.alt	1.62785
184310	100	M100:VFR_HUD.alt	1.66155
184797	100	M100:VFR_HUD.alt	1.65622
185206	100	M100:VFR_HUD.alt	1.68307
185740	100	M100:VFR_HUD.alt	1.68815
186289	100	M100:VFR_HUD.alt	1.71768
186840	100	M100:VFR_HUD.alt	1.70296
187215	100	M100:VFR_HUD.alt	1.68762
187764	100	M100:VFR_HUD.alt	1.70962
188301	100	M100:VFR_HUD.alt	1.70957
188852	100	M100:VFR_HUD.alt	1.70598
189181	100	M100:VFR_HUD.alt	1.70505
189730	100	M100:VFR_HUD.alt	1.71723
190263	100	M100:VFR_HUD.alt	1.7211
190798	100	M100:VFR_HUD.alt	1.7158
191208	100	M100:VFR_HUD.alt	1.72286
191804	100	M100:VFR_HUD.alt	1.73196
192278	100	M100:VFR_HUD.alt	1.72709
192778	100	M100:VFR_HUD.alt	1.74242
193187	100	M100:VFR_HUD.alt	1.72213
193736	100	M100:VFR_HUD.alt	1.75349
194271	100	M100:VFR_HUD.alt	1.75706
194803	100	M100:VFR_HUD.alt	1.78618
195351	100	M100:VFR_HUD.alt	1.79057
195743	100	M100:VFR_HUD.alt	1.76791
196291	100	M100:VFR_HUD.alt	1.78516
196824	100	M100:VFR_HUD.alt	1.77547
197373	100	M100:VFR_HUD.alt	1.80284
197733	100	M100:VFR_HUD.alt	1.80947
198269	100	M100:VFR_HUD.alt	1.80959
198816	100	M100:VFR_HUD.alt	1.83726
199400	100	M100:VFR_HUD.alt	1.82926
199749	100	M100:VFR_HUD.alt	1.81406
200234	100	M100:VFR_HUD.alt	1.80069
200782	100	M100:VFR_HUD.alt	1.77861
201285	100	M100:VFR_HUD.alt	1.75886
201838	100	M100:VFR_HUD.alt	1.75019
202485	100	M100:VFR_HUD.alt	1.74838
202939	100	M100:VFR_HUD.alt	1.7584
203267	100	M100:VFR_HUD.alt	1.77809
203799	100	M100:VFR_HUD.alt	1.77051
204334	100	M100:VFR_HUD.alt	1.75743
204741	100	M100:VFR_HUD.alt	1.7241
205273	100	M100:VFR_HUD.alt	1.69444
205824	100	M100:VFR_HUD.alt	1.69092
206375	100	M100:VFR_HUD.alt	1.69076
206750	100	M100:VFR_HUD.alt	1.6908
207302	100	M100:VFR_HUD.alt	1.69113
207851	100	M100:VFR_HUD.alt	1.71262
208400	100	M100:VFR_HUD.alt	1.73986
208777	100	M100:VFR_HUD.alt	1.75728
209326	100	M100:VFR_HUD.alt	1.74482
209874	100	M100:VFR_HUD.alt	1.7546
210405	100	M100:VFR_HUD.alt	1.78011
210796	100	M100:VFR_HUD.alt	1.79847
211284	100	M100:VFR_HUD.alt	1.78684
211840	100	M100:VFR_HUD.alt	1.77722
212417	100	M100:VFR_HUD.alt	1.79292
212780	100	M100:VFR_HUD.alt	1.80627
213346	100	M100:VFR_HUD.alt	1.80474
213865	100	M100:VFR_HUD.alt	1.81854
214401	100	M100:VFR_HUD.alt	1.83994
214950	100	M100:VFR_HUD.alt	1.83577
215280	100	M100:VFR_HUD.alt	1.82697
215891	100	M100:VFR_HUD.alt	1.84939
216424	100	M100:VFR_HUD.alt	1.87641
216755	100	M100:VFR_HUD.alt	1.88165
217305	100	M100:VFR_HUD.alt	1.88755
217856	100	M100:VFR_HUD.alt	1.91009
218391	100	M100:VFR_HUD.alt	1.91873
218783	100	M100:VFR_HUD.alt	1.96305
219332	100	M100:VFR_HUD.alt	1.9895
219864	100	M100:VFR_HUD.alt	1.99741
220412	100	M100:VFR_HUD.alt	2.02534
220807	100	M100:VFR_HUD.alt	2.04962
221345	100	M100:VFR_HUD.alt	2.06697
221895	100	M100:VFR_HUD.alt	2.07608
222445	100	M100:VFR_HUD.alt	2.08621
222792	100	M100:VFR_HUD.alt	2.10706
223387	100	M100:VFR_HUD.alt	2.13621
223905	100	M100:VFR_HUD.alt	2.16699
224393	100	M100:VFR_HUD.alt	2.18623
224800	100	M100:VFR_HUD.alt	2.20985
225331	100	M100:VFR_HUD.alt	2.23614
225897	100	M100:VFR_HUD.alt	2.2175
226433	100	M100:VFR_HUD.alt	2.23862
226828	100	M100:VFR_HUD.alt	2.24662
227362	100	M100:VFR_HUD.alt	2.28311
227910	100	M100:VFR_HUD.alt	2.32449
228444	100	M100:VFR_HUD.alt	2.32507
228791	100	M100:VFR_HUD.alt	2.35684
229327	100	M100:VFR_HUD.alt	2.38484
229874	100	M100:VFR_HUD.alt	2.37347
230409	100	M100:VFR_HUD.alt	2.3685
230816	100	M100:VFR_HUD.alt	2.38362
231334	100	M100:VFR_HUD.alt	2.39956
231915	100	M100:VFR_HUD.alt	2.40017
232422	100	M100:VFR_HUD.alt	2.41833
232832	100	M100:VFR_HUD.alt	2.44209
233382	100	M100:VFR_HUD.alt	2.4507
233933	100	M100:VFR_HUD.alt	2.45071
234452	100	M100:VFR_HUD.alt	2.44719
234844	100	M100:VFR_HUD.alt	2.45546
235394	100	M100:VFR_HUD.alt	2.4793
235929	100	M100:VFR_HUD.alt	2.50728
236289	100	M100:VFR_HUD.alt	2.52066
236820	100	M100:VFR_HUD.alt	2.51319
237366	100	M100:VFR_HUD.alt	2.54573
237919	100	M100:VFR_HUD.alt	2.60643
238311	100	M100:VFR_HUD.alt	2.61142
238846	100	M100:VFR_HUD.alt	2.63203
239394	100	M100:VFR_HUD.alt	2.64058
239925	100	M100:VFR_HUD.alt	2.65263
240425	100	M100:VFR_HUD.alt	2.66569
240818	100	M100:VFR_HUD.alt	2.6969
241355	100	M100:VFR_HUD.alt	2.74317
241951	100	M100:VFR_HUD.alt	2.79527
242501	100	M100:VFR_HUD.alt	2.82274
242833	100	M100:VFR_HUD.alt	2.85277
243371	100	M100:VFR_HUD.alt	2.89678
243919	100	M100:VFR_HUD.alt	2.92731
244314	100	M100:VFR_HUD.alt	2.94327
244863	100	M100:VFR_HUD.alt	2.93476
245398	100	M100:VFR_HUD.alt	2.93569
245793	100	M100:VFR_HUD.alt	2.93286
246341	100	M100:VFR_HUD.alt	2.95319
246876	100	M100:VFR_HUD.alt	2.96306
247410	100	M100:VFR_HUD.alt	2.94605
247958	100	M100:VFR_HUD.alt	2.9422
248318	100	M100:VFR_HUD.alt	2.92216
248867	100	M100:VFR_HUD.alt	2.92758
249429	100	M100:VFR_HUD.alt	2.90862
249913	100	M100:VFR_HUD.alt	2.91264
250352	100	M100:VFR_HUD.alt	2.89081
250901	100	M100:VFR_HUD.alt	2.89155
251422	100	M100:VFR_HUD.alt	2.91263
251957	100	M100:VFR_HUD.alt	2.90929
252491	100	M100:VFR_HUD.alt	2.90252
252900	100	M100:VFR_HUD.alt	2.89093
253431	100	M100:VFR_HUD.alt	2.88633
253979	100	M100:VFR_HUD.alt	2.87793
254312	100	M100:VFR_HUD.alt	2.84966
254859	100	M100:VFR_HUD.alt	2.83687
255394	100	M100:VFR_HUD.alt	2.8424
255805	100	M100:VFR_HUD.alt	2.82333
256357	100	M100:VFR_HUD.alt	2.83274
256877	100	M100:VFR_HUD.alt	2.85939
257410	100	M100:VFR_HUD.alt	2.86668
257820	100	M100:VFR_HUD.alt	2.88082
258372	100	M100:VFR_HUD.alt	2.90882
258906	100	M100:VFR_HUD.alt	2.89366
259438	100	M100:VFR_HUD.alt	2.91079
260000	100	M100:VFR_HUD.alt	2.92717
260378	100	M100:VFR_HUD.alt	2.92382
260926	100	M100:VFR_HUD.alt	2.93107
261473	100	M100:VFR_HUD.alt	2.9163
261819	100	M100:VFR_HUD.alt	2.89801
262356	100	M100:VFR_HUD.alt	2.90664
262903	100	M100:VFR_HUD.alt	2.89437
263473	100	M100:VFR_HUD.alt	2.88092
263833	100	M100:VFR_HUD.alt	2.86951
264385	100	M100:VFR_HUD.alt	2.85283
264907	100	M100:VFR_HUD.alt	2.8399
265458	100	M100:VFR_HUD.alt	2.82959
266008	100	M100:VFR_HUD.alt	2.81813
266356	100	M100:VFR_HUD.alt	2.79884
266877	100	M100:VFR_HUD.alt	2.76346
267411	100	M100:VFR_HUD.alt	2.73868
267959	100	M100:VFR_HUD.alt	2.76046
268370	100	M100:VFR_HUD.alt	2.73447
268904	100	M100:VFR_HUD.alt	2.7425
269451	100	M100:VFR_HUD.alt	2.73905
269857	100	M100:VFR_HUD.alt	2.70547
270406	100	M100:VFR_HUD.alt	2.68083
270941	100	M100:VFR_HUD.alt	2.69472
271474	100	M100:VFR_HUD.alt	2.7154
271852	100	M100:VFR_HUD.alt	2.70566
272399	100	M100:VFR_HUD.alt	2.67574
272954	100	M100:VFR_HUD.alt	2.66304
273488	100	M100:VFR_HUD.alt	2.65509
273850	100	M100:VFR_HUD.alt	2.63207
274397	100	M100:VFR_HUD.alt	2.61363
274930	100	M100:VFR_HUD.alt	2.60384
275449	100	M100:VFR_HUD.alt	2.57771
275858	100	M100:VFR_HUD.alt	2.55217
276405	100	M100:VFR_HUD.alt	2.56086
276938	100	M100:VFR_HUD.alt	2.5292
277504	100	M100:VFR_HUD.alt	2.53751
277821	100	M100:VFR_HUD.alt	2.50991
278356	100	M100:VFR_HUD.alt	2.50525
278972	100	M100:VFR_HUD.alt	2.50544
279505	100	M100:VFR_HUD.alt	2.47443
279834	100	M100:VFR_HUD.alt	2.45814
280397	100	M100:VFR_HUD.alt	2.42539
280929	100	M100:VFR_HUD.alt	2.42394
281469	100	M100:VFR_HUD.alt	2.43557
281861	100	M100:VFR_HUD.alt	2.41654
282427	100	M100:VFR_HUD.alt	2.41611
282945	100	M100:VFR_HUD.alt	2.43775
283356	100	M100:VFR_HUD.alt	2.44335
283893	100	M100:VFR_HUD.alt	2.44707
284442	100	M100:VFR_HUD.alt	2.4446
284974	100	M100:VFR_HUD.alt	2.43564
285523	100	M100:VFR_HUD.alt	2.44404
285872	100	M100:VFR_HUD.alt	2.44587
286459	100	M100:VFR_HUD.alt	2.44088
286994	100	M100:VFR_HUD.alt	2.45071
287342	100	M100:VFR_HUD.alt	2.45286
287893	100	M100:VFR_HUD.alt	2.46477
288428	100	M100:VFR_HUD.alt	2.44525
288977	100	M100:VFR_HUD.alt	2.4303
289509	100	M100:VFR_HUD.alt	2.38604
289899	100	M100:VFR_HUD.alt	2.38851
290448	100	M100:VFR_HUD.alt	2.36589
291011	100	M100:VFR_HUD.alt	2.35792
291545	100	M100:VFR_HUD.alt	2.3351
291863	100	M100:VFR_HUD.alt	2.32575
292416	100	M100:VFR_HUD.alt	2.33291
292951	100	M100:VFR_HUD.alt	2.30326
293358	100	M100:VFR_HUD.alt	2.28306
293892	100	M100:VFR_HUD.alt	2.2938
294430	100	M100:VFR_HUD.alt	2.2955
294984	100	M100:VFR_HUD.alt	2.28958
295376	100	M100:VFR_HUD.alt	2.28495
295911	100	M100:VFR_HUD.alt	2.26458
296461	100	M100:VFR_HUD.alt	2.24696
297013	100	M100:VFR_HUD.alt	2.23481
297392	100	M100:VFR_HUD.alt	2.26491
297929	100	M100:VFR_HUD.alt	2.2874
298445	100	M100:VFR_HUD.alt	2.28047
298991	100	M100:VFR_HUD.alt	2.27972
299538	100	M100:VFR_HUD.alt	2.26704
299882	100	M100:VFR_HUD.alt	2.25125
300431	100	M100:VFR_HUD.alt	2.24583
300965	100	M100:VFR_HUD.alt	2.25391
301517	100	M100:VFR_HUD.alt	2.23978
301892	100	M100:VFR_HUD.alt	2.22594
302441	100	M100:VFR_HUD.alt	2.21929
302977	100	M100:VFR_HUD.alt	2.20832
303530	100	M100:VFR_HUD.alt	2.23272
303858	100	M100:VFR_HUD.alt	2.23564
304406	100	M100:VFR_HUD.alt	2.21225
304937	100	M100:VFR_HUD.alt	2.21187
305359	100	M100:VFR_HUD.alt	2.21475
305877	100	M100:VFR_HUD.alt	2.19316
306410	100	M100:VFR_HUD.alt	2.20003
306962	100	M100:VFR_HUD.alt	2.19887
307369	100	M100:VFR_HUD.alt	2.19673
307917	100	M100:VFR_HUD.alt	2.19492
308452	100	M100:VFR_HUD.alt	2.20484
308990	100	M100:VFR_HUD.alt	2.18362
309352	100	M100:VFR_HUD.alt	2.17549
309930	100	M100:VFR_HUD.alt	2.14104
310463	100	M100:VFR_HUD.alt	2.12037
311017	100	M100:VFR_HUD.alt	2.12408
311362	100	M100:VFR_HUD.alt	2.11228
311917	100	M100:VFR_HUD.alt	2.09534
312448	100	M100:VFR_HUD.alt	2.10516
313000	100	M100:VFR_HUD.alt	2.08447
313377	100	M100:VFR_HUD.alt	2.06745
313926	100	M100:VFR_HUD.alt	2.08046
314473	100	M100:VFR_HUD.alt	2.07314
315023	100	M100:VFR_HUD.alt	2.06081
315554	100	M100:VFR_HUD.alt	2.06468
315902	100	M100:VFR_HUD.alt	2.08245
316440	100	M100:VFR_HUD.alt	2.11509
317023	100	M100:VFR_HUD.alt	2.12639
317368	100	M100:VFR_HUD.alt	2.11059
317915	100	M100:VFR_HUD.alt	2.10821
318463	100	M100:VFR_HUD.alt	2.09332
318963	100	M100:VFR_HUD.alt	2.10526
319404	100	M100:VFR_HUD.alt	2.07244
319941	100	M100:VFR_HUD.alt	2.0757
320489	100	M100:VFR_HUD.alt	2.0966
320868	100	M100:VFR_HUD.alt	2.10759
321419	100	M100:VFR_HUD.alt	2.09556
321968	100	M100:VFR_HUD.alt	2.079
322533	100	M100:VFR_HUD.alt	2.05796
323049	100	M100:VFR_HUD.alt	2.04865
323394	100	M100:VFR_HUD.alt	2.01426
323944	100	M100:VFR_HUD.alt	1.98462
324522	100	M100:VFR_HUD.alt	1.97127
324881	100	M100:VFR_HUD.alt	1.96807
325428	100	M100:VFR_HUD.alt	1.9647
325961	100	M100:VFR_HUD.alt	1.96088
326499	100	M100:VFR_HUD.alt	1.96236
326984	100	M100:VFR_HUD.alt	1.96373
327390	100	M100:VFR_HUD.alt	1.93054
327990	100	M100:VFR_HUD.alt	1.93409
328530	100	M100:VFR_HUD.alt	1.93312
329080	100	M100:VFR_HUD.alt	1.91891
329408	100	M100:VFR_HUD.alt	1.92243
329957	100	M100:VFR_HUD.alt	1.93047
330490	100	M100:VFR_HUD.alt	1.94007
330886	100	M100:VFR_HUD.alt	1.93852
331450	100	M100:VFR_HUD.alt	1.91789
331972	100	M100:VFR_HUD.alt	1.92904
332507	100	M100:VFR_HUD.alt	1.94158
332916	100	M100:VFR_HUD.alt	1.96037
333447	100	M100:VFR_HUD.alt	1.97474
334011	100	M100:VFR_HUD.alt	1.96532
334535	100	M100:VFR_HUD.alt	1.94239
334896	100	M100:VFR_HUD.alt	1.92658
335475	100	M100:VFR_HUD.alt	1.9219
336022	100	M100:VFR_HUD.alt	1.92446
336369	100	M100:VFR_HUD.alt	1.92161
336915	100	M100:VFR_HUD.alt	1.89542
337462	100	M100:VFR_HUD.alt	1.89915
337995	100	M100:VFR_HUD.alt	1.91897
338546	100	M100:VFR_HUD.alt	1.93397
338924	100	M100:VFR_HUD.alt	1.95585
339490	100	M100:VFR_HUD.alt	2.00253
340022	100	M100:VFR_HUD.alt	2.01027
340568	100	M100:VFR_HUD.alt	2.01186
340898	100	M100:VFR_HUD.alt	2.02949
341433	100	M100:VFR_HUD.alt	2.06205
341984	100	M100:VFR_HUD.alt	2.05043
342393	100	M100:VFR_HUD.alt	2.0724
342927	100	M100:VFR_HUD.alt	2.07689
343467	100	M100:VFR_HUD.alt	2.06798
344002	100	M100:VFR_HUD.alt	2.07232
344398	100	M100:VFR_HUD.alt	2.08024
344947	100	M100:VFR_HUD.alt	2.06972
345494	100	M100:VFR_HUD.alt	2.04882
346043	100	M100:VFR_HUD.alt	2.02889
346389	100	M100:VFR_HUD.alt	2.02256
346968	100	M100:VFR_HUD.alt	2.04897
347503	100	M100:VFR_HUD.alt	2.07003
348072	100	M100:VFR_HUD.alt	2.06205
348417	100	M100:VFR_HUD.alt	2.06801
348953	100	M100:VFR_HUD.alt	2.0583
349499	100	M100:VFR_HUD.alt	2.06523
350031	100	M100:VFR_HUD.alt	2.05018
350422	100	M100:VFR_HUD.alt	2.05768
350957	100	M100:VFR_HUD.alt	2.02696
351506	100	M100:VFR_HUD.alt	1.99619
352105	100	M100:VFR_HUD.alt	1.97892
352606	100	M100:VFR_HUD.alt	2.00857
352935	100	M100:VFR_HUD.alt	2.02184
353472	100	M100:VFR_HUD.alt	2.01827
353972	100	M100:VFR_HUD.alt	2.01509
354521	100	M100:VFR_HUD.alt	1.99216
354929	100	M100:VFR_HUD.alt	1.99049
355445	100	M100:VFR_HUD.alt	1.99534
355998	100	M100:VFR_HUD.alt	1.98064
356407	100	M100:VFR_HUD.alt	1.97488
356931	100	M100:VFR_HUD.alt	2.00245
357482	100	M100:VFR_HUD.alt	2.01924
358029	100	M100:VFR_HUD.alt	2.01055
358576	100	M100:VFR_HUD.alt	2.03084
358952	100	M100:VFR_HUD.alt	2.01987
359503	100	M100:VFR_HUD.alt	2.03905
360051	100	M100:VFR_HUD.alt	2.03125
360394	100	M100:VFR_HUD.alt	2.01738
360941	100	M100:VFR_HUD.alt	2.03375
361479	100	M100:VFR_HUD.alt	2.05041
362028	100	M100:VFR_HUD.alt	2.04381
362423	100	M100:VFR_HUD.alt	2.04529
362957	100	M100:VFR_HUD.alt	2.03632
363494	100	M100:VFR_HUD.alt	2.00432
364041	100	M100:VFR_HUD.alt	2.00344
364384	100	M100:VFR_HUD.alt	1.99642
364918	100	M100:VFR_HUD.alt	1.98041
365434	100	M100:VFR_HUD.alt	1.96057
365968	100	M100:VFR_HUD.alt	1.94935
366507	100	M100:VFR_HUD.alt	1.9393
366948	100	M100:VFR_HUD.alt	1.90696
367453	100	M100:VFR_HUD.alt	1.89836
368003	100	M100:VFR_HUD.alt	1.87748
368382	100	M100:VFR_HUD.alt	1.8637
368975	100	M100:VFR_HUD.alt	1.83908
369477	100	M100:VFR_HUD.alt	1.82294
370014	100	M100:VFR_HUD.alt	1.80897
370566	100	M100:VFR_HUD.alt	1.80646
370945	100	M100:VFR_HUD.alt	1.7842
371492	100	M100:VFR_HUD.alt	1.76843
372043	100	M100:VFR_HUD.alt	1.76539
372579	100	M100:VFR_HUD.alt	1.76581
372928	100	M100:VFR_HUD.alt	1.75675
373477	100	M100:VFR_HUD.alt	1.75358
374014	100	M100:VFR_HUD.alt	1.74529
374411	100	M100:VFR_HUD.alt	1.73213
374962	100	M100:VFR_HUD.alt	1.71898
375494	100	M100:VFR_HUD.alt	1.69559
376056	100	M100:VFR_HUD.alt	1.6764
376579	100	M100:VFR_HUD.alt	1.67448
376926	100	M100:VFR_HUD.alt	1.67458
377463	100	M100:VFR_HUD.alt	1.66943
378045	100	M100:VFR_HUD.alt	1.64298
378391	100	M100:VFR_HUD.alt	1.64002
378940	100	M100:VFR_HUD.alt	1.62785
379550	100	M100:VFR_HUD.alt	1.62701
380036	100	M100:VFR_HUD.alt	1.59485
380412	100	M100:VFR_HUD.alt	1.60082
380975	100	M100:VFR_HUD.alt	1.5828
381515	100	M100:VFR_HUD.alt	1.56878
382065	100	M100:VFR_HUD.alt	1.56058
382442	100	M100:VFR_HUD.alt	1.57807
382980	100	M100:VFR_HUD.alt	1.59386
383529	100	M100:VFR_HUD.alt	1.57352
384076	100	M100:VFR_HUD.alt	1.56278
384422	100	M100:VFR_HUD.alt	1.5554
384969	100	M100:VFR_HUD.alt	1.54663
385518	100	M100:VFR_HUD.alt	1.53842
386100	100	M100:VFR_HUD.alt	1.53003
386449	100	M100:VFR_HUD.alt	1.53399
386984	100	M100:VFR_HUD.alt	1.54513
387425	100	M100:VFR_HUD.alt	1.5451
388038	100	M100:VFR_HUD.alt	1.55258
388588	100	M100:VFR_HUD.alt	1.5474
388916	100	M100:VFR_HUD.alt	1.52427
389466	100	M100:VFR_HUD.alt	1.5495
390106	100	M100:VFR_HUD.alt	1.54331
390593	100	M100:VFR_HUD.alt	1.56694
390941	100	M100:VFR_HUD.alt	1.56254
391478	100	M100:VFR_HUD.alt	1.56552
392026	100	M100:VFR_HUD.alt	1.54937
392433	100	M100:VFR_HUD.alt	1.54601
392933	100	M100:VFR_HUD.alt	1.54773
393531	100	M100:VFR_HUD.alt	1.54343
393939	100	M100:VFR_HUD.alt	1.53438
394487	100	M100:VFR_HUD.alt	1.54689
395034	100	M100:VFR_HUD.alt	1.55123
395566	100	M100:VFR_HUD.alt	1.54242
395926	100	M100:VFR_HUD.alt	1.55032
396461	100	M100:VFR_HUD.alt	1.55681
397045	100	M100:VFR_HUD.alt	1.54033
397499	100	M100:VFR_HUD.alt	1.55481
398084	100	M100:VFR_HUD.alt	1.57942
398478	100	M100:VFR_HUD.alt	1.58047
398981	100	M100:VFR_HUD.alt	1.60061
399530	100	M100:VFR_HUD.alt	1.61197
400077	100	M100:VFR_HUD.alt	1.60711
400614	100	M100:VFR_HUD.alt	1.61941
400944	100	M100:VFR_HUD.alt	1.61162
401547	100	M100:VFR_HUD.alt	1.6332
402036	100	M100:VFR_HUD.alt	1.63195
402584	100	M100:VFR_HUD.alt	1.62281
402928	100	M100:VFR_HUD.alt	1.6121
403463	100	M100:VFR_HUD.alt	1.62892
404014	100	M100:VFR_HUD.alt	1.62099
404564	100	M100:VFR_HUD.alt	1.60008
404973	100	M100:VFR_HUD.alt	1.58573
405508	100	M100:VFR_HUD.alt	1.60177
406041	100	M100:VFR_HUD.alt	1.62021
406448	100	M100:VFR_HUD.alt	1.59616
406981	100	M100:VFR_HUD.alt	1.58034
407516	100	M100:VFR_HUD.alt	1.60237
408020	100	M100:VFR_HUD.alt	1.60607
408602	100	M100:VFR_HUD.alt	1.60565
408963	100	M100:VFR_HUD.alt	1.63739
409495	100	M100:VFR_HUD.alt	1.64636
410093	100	M100:VFR_HUD.alt	1.65069
410437	100	M100:VFR_HUD.alt	1.66604
410960	100	M100:VFR_HUD.alt	1.6865
411511	100	M100:VFR_HUD.alt	1.7043
412062	100	M100:VFR_HUD.alt	1.72187
412617	100	M100:VFR_HUD.alt	1.7399
412932	100	M100:VFR_HUD.alt	1.74734
413530	100	M100:VFR_HUD.alt	1.7424
414077	100	M100:VFR_HUD.alt	1.75284
414563	100	M100:VFR_HUD.alt	1.75215
414970	100	M100:VFR_HUD.alt	1.75265
415501	100	M100:VFR_HUD.alt	1.75466
416035	100	M100:VFR_HUD.alt	1.75087
416602	100	M100:VFR_HUD.alt	1.73869
416996	100	M100:VFR_HUD.alt	1.72277
417528	100	M100:VFR_HUD.alt	1.71369
418063	100	M100:VFR_HUD.alt	1.69913
418459	100	M100:VFR_HUD.alt	1.68705
419008	100	M100:VFR_HUD.alt	1.66625
419603	100	M100:VFR_HUD.alt	1.65677
420091	100	M100:VFR_HUD.alt	1.64609
420451	100	M100:VFR_HUD.alt	1.65011
421035	100	M100:VFR_HUD.alt	1.64286
421569	100	M100:VFR_HUD.alt	1.63257
421929	100	M100:VFR_HUD.alt	1.63672
422464	100	M100:VFR_HUD.alt	1.59952
422998	100	M100:VFR_HUD.alt	1.58036
423553	100	M100:VFR_HUD.alt	1.58023
424100	100	M100:VFR_HUD.alt	1.59331
424490	100	M100:VFR_HUD.alt	1.61188
425038	100	M100:VFR_HUD.alt	1.61384
425571	100	M100:VFR_HUD.alt	1.61538
426122	100	M100:VFR_HUD.alt	1.61947
426454	100	M100:VFR_HUD.alt	1.62559
426990	100	M100:VFR_HUD.alt	1.64757
427555	100	M100:VFR_HUD.alt	1.6657
428138	100	M100:VFR_HUD.alt	1.66564
428467	100	M100:VFR_HUD.alt	1.66674
429004	100	M100:VFR_HUD.alt	1.65704
429553	100	M100:VFR_HUD.alt	1.63162
430167	100	M100:VFR_HUD.alt	1.60965
430497	100	M100:VFR_HUD.alt	1.58697
431048	100	M100:VFR_HUD.alt	1.58789
431585	100	M100:VFR_HUD.alt	1.56756
431967	100	M100:VFR_HUD.alt	1.55695
432516	100	M100:VFR_HUD.alt	1.52915
433070	100	M100:VFR_HUD.alt	1.53935
433594	100	M100:VFR_HUD.alt	1.54349
434143	100	M100:VFR_HUD.alt	1.54833
434504	100	M100:VFR_HUD.alt	1.52647
435054	100	M100:VFR_HUD.alt	1.52957
435618	100	M100:VFR_HUD.alt	1.52556
435978	100	M100:VFR_HUD.alt	1.51024
436542	100	M100:VFR_HUD.alt	1.49899
437075	100	M100:VFR_HUD.alt	1.48855
437608	100	M100:VFR_HUD.alt	1.49446
438159	100	M100:VFR_HUD.alt	1.51178
438488	100	M100:VFR_HUD.alt	1.50813
439025	100	M100:VFR_HUD.alt	1.4964
439634	100	M100:VFR_HUD.alt	1.51871
440165	100	M100:VFR_HUD.alt	1.4848
440493	100	M100:VFR_HUD.alt	1.48397
441058	100	M100:VFR_HUD.alt	1.48763
441595	100	M100:VFR_HUD.alt	1.50624
441987	100	M100:VFR_HUD.alt	1.53251
442543	100	M100:VFR_HUD.alt	1.55056
443076	100	M100:VFR_HUD.alt	1.56097
443561	100	M100:VFR_HUD.alt	1.57804
444018	100	M100:VFR_HUD.alt	1.5842
444555	100	M100:VFR_HUD.alt	1.58792
445102	100	M100:VFR_HUD.alt	1.59616
445636	100	M100:VFR_HUD.alt	1.6007
446029	100	M100:VFR_HUD.alt	1.58162
446532	100	M100:VFR_HUD.alt	1.57966
447071	100	M100:VFR_HUD.alt	1.57321
447544	100	M100:VFR_HUD.alt	1.57092
448092	100	M100:VFR_HUD.alt	1.58085
448625	100	M100:VFR_HUD.alt	1.58452
449033	100	M100:VFR_HUD.alt	1.5942
449564	100	M100:VFR_HUD.alt	1.61596
450112	100	M100:VFR_HUD.alt	1.62442
450614	100	M100:VFR_HUD.alt	1.61572
451133	100	M100:VFR_HUD.alt	1.59257
451666	100	M100:VFR_HUD.alt	1.5924
451996	100	M100:VFR_HUD.alt	1.62809
452543	100	M100:VFR_HUD.alt	1.617
453095	100	M100:VFR_HUD.alt	1.59605
453504	100	M100:VFR_HUD.alt	1.5713
454035	100	M100:VFR_HUD.alt	1.56112
454567	100	M100:VFR_HUD.alt	1.54812
455068	100	M100:VFR_HUD.alt	1.54189
455509	100	M100:VFR_HUD.alt	1.53544
456058	100	M100:VFR_HUD.alt	1.51833
456593	100	M100:VFR_HUD.alt	1.50593
457147	100	M100:VFR_HUD.alt	1.48957
457543	100	M100:VFR_HUD.alt	1.4734
458077	100	M100:VFR_HUD.alt	1.46519
458614	100	M100:VFR_HUD.alt	1.45746
459164	100	M100:VFR_HUD.alt	1.44904
459512	100	M100:VFR_HUD.alt	1.44223
460044	100	M100:VFR_HUD.alt	1.44545
460598	100	M100:VFR_HUD.alt	1.45153
461151	100	M100:VFR_HUD.alt	1.46804
461517	100	M100:VFR_HUD.alt	1.46046
462065	100	M100:VFR_HUD.alt	1.45374
463466	100	M100:VFR_HUD.alt	1.44957
464015	100	M100:VFR_HUD.alt	1.45434
464562	100	M100:VFR_HUD.alt	1.43086
465063	100	M100:VFR_HUD.alt	1.40702
466129	100	M100:VFR_HUD.alt	1.33789
466522	100	M100:VFR_HUD.alt	1.33234
467058	100	M100:VFR_HUD.alt	1.33334
467610	100	M100:VFR_HUD.alt	1.31608
468568	100	M100:VFR_HUD.alt	1.28593
469135	100	M100:VFR_HUD.alt	1.25992
469669	100	M100:VFR_HUD.alt	1.2332
470012	100	M100:VFR_HUD.alt	1.24178
470593	100	M100:VFR_HUD.alt	1.23133
471148	100	M100:VFR_HUD.alt	1.23451
471494	100	M100:VFR_HUD.alt	1.22292
472028	100	M100:VFR_HUD.alt	1.22264
472578	100	M100:VFR_HUD.alt	1.18211
473133	100	M100:VFR_HUD.alt	1.18045
473665	100	M100:VFR_HUD.alt	1.16368
474058	100	M100:VFR_HUD.alt	1.1929
475015	100	M100:VFR_HUD.alt	1.22278
475661	100	M100:VFR_HUD.alt	1.23566
476022	100	M100:VFR_HUD.alt	1.22116
476589	100	M100:VFR_HUD.alt	1.2199
477078	100	M100:VFR_HUD.alt	1.2156
477641	100	M100:VFR_HUD.alt	1.21584
478032	100	M100:VFR_HUD.alt	1.21787
478568	100	M100:VFR_HUD.alt	1.22112
479115	100	M100:VFR_HUD.alt	1.22029
479505	100	M100:VFR_HUD.alt	1.19227
480052	100	M100:VFR_HUD.alt	1.17115
480586	100	M100:VFR_HUD.alt	1.18985
481135	100	M100:VFR_HUD.alt	1.21948
481483	100	M100:VFR_HUD.alt	1.22878
482068	100	M100:VFR_HUD.alt	1.24361
482604	100	M100:VFR_HUD.alt	1.2578
483155	100	M100:VFR_HUD.alt	1.26328
483503	100	M100:VFR_HUD.alt	1.24895
484055	100	M100:VFR_HUD.alt	1.27929
484572	100	M100:VFR_HUD.alt	1.25891
485029	100	M100:VFR_HUD.alt	1.28124
485563	100	M100:VFR_HUD.alt	1.28355
486097	100	M100:VFR_HUD.alt	1.30027
487133	100	M100:VFR_HUD.alt	1.27586
487666	100	M100:VFR_HUD.alt	1.27451
487998	100	M100:VFR_HUD.alt	1.28836
488533	100	M100:VFR_HUD.alt	1.30176
489128	100	M100:VFR_HUD.alt	1.30974
489518	100	M100:VFR_HUD.alt	1.32557
490050	100	M100:VFR_HUD.alt	1.33814
490598	100	M100:VFR_HUD.alt	1.31427
491008	100	M100:VFR_HUD.alt	1.32219
491543	100	M100:VFR_HUD.alt	1.33508
492096	100	M100:VFR_HUD.alt	1.29323
492636	100	M100:VFR_HUD.alt	1.29931
493031	100	M100:VFR_HUD.alt	1.30094
493565	100	M100:VFR_HUD.alt	1.29672
494112	100	M100:VFR_HUD.alt	1.31845
494659	100	M100:VFR_HUD.alt	1.32432
495003	100	M100:VFR_HUD.alt	1.28578
495540	100	M100:VFR_HUD.alt	1.27346
496485	100	M100:VFR_HUD.alt	1.26283
497006	100	M100:VFR_HUD.alt	1.25833
497555	100	M100:VFR_HUD.alt	1.23707
498091	100	M100:VFR_HUD.alt	1.2285
498622	100	M100:VFR_HUD.alt	1.23786
499184	100	M100:VFR_HUD.alt	1.25002
499515	100	M100:VFR_HUD.alt	1.25948
500062	100	M100:VFR_HUD.alt	1.25178
500641	100	M100:VFR_HUD.alt	1.22095
501205	100	M100:VFR_HUD.alt	1.19194
501536	100	M100:VFR_HUD.alt	1.18796
502068	100	M100:VFR_HUD.alt	1.199
502617	100	M100:VFR_HUD.alt	1.1674
503011	100	M100:VFR_HUD.alt	1.17672
504031	100	M100:VFR_HUD.alt	1.21238
504627	100	M100:VFR_HUD.alt	1.20366
505176	100	M100:VFR_HUD.alt	1.23132
505568	100	M100:VFR_HUD.alt	1.23011
506102	100	M100:VFR_HUD.alt	1.26407
506649	100	M100:VFR_HUD.alt	1.27564
507188	100	M100:VFR_HUD.alt	1.3829
507548	100	M100:VFR_HUD.alt	1.46839
508081	100	M100:VFR_HUD.alt	1.49022
508612	100	M100:VFR_HUD.alt	1.52438
509005	100	M100:VFR_HUD.alt	1.59322
509556	100	M100:VFR_HUD.alt	1.6056
510089	100	M100:VFR_HUD.alt	1.6056
510637	100	M100:VFR_HUD.alt	1.6056
511187	100	M100:VFR_HUD.alt	1.6056
511534	100	M100:VFR_HUD.alt	1.6056
512059	100	M100:VFR_HUD.alt	1.6056
512655	100	M100:VFR_HUD.alt	1.6056
513001	100	M100:VFR_HUD.alt	1.6056
513542	100	M100:VFR_HUD.alt	1.6056
514078	100	M100:VFR_HUD.alt	1.6056
514627	100	M100:VFR_HUD.alt	1.6056
515033	100	M100:VFR_HUD.alt	1.6056
515568	100	M100:VFR_HUD.alt	1.72443
516122	100	M100:VFR_HUD.alt	1.80827
516656	100	M100:VFR_HUD.alt	1.80827
517033	100	M100:VFR_HUD.alt	1.7976
517583	100	M100:VFR_HUD.alt	1.78792
518133	100	M100:VFR_HUD.alt	1.78908
518702	100	M100:VFR_HUD.alt	1.76672
519015	100	M100:VFR_HUD.alt	1.72791
519562	100	M100:VFR_HUD.alt	1.67782
520142	100	M100:VFR_HUD.alt	1.62407
520691	100	M100:VFR_HUD.alt	1.56429
521050	100	M100:VFR_HUD.alt	1.51168
521587	100	M100:VFR_HUD.alt	1.48141
522141	100	M100:VFR_HUD.alt	1.4174
522675	100	M100:VFR_HUD.alt	1.4028
523022	100	M100:VFR_HUD.alt	1.35103
523615	100	M100:VFR_HUD.alt	1.31421
524149	100	M100:VFR_HUD.alt	1.30592
524697	100	M100:VFR_HUD.alt	1.30169
525040	100	M100:VFR_HUD.alt	1.26905
525573	100	M100:VFR_HUD.alt	1.26836
526125	100	M100:VFR_HUD.alt	1.26288
526521	100	M100:VFR_HUD.alt	1.25253
527070	100	M100:VFR_HUD.alt	1.2477
527616	100	M100:VFR_HUD.alt	1.2152
528134	100	M100:VFR_HUD.alt	1.19661
528528	100	M100:VFR_HUD.alt	1.19451
529079	100	M100:VFR_HUD.alt	1.18464
529610	100	M100:VFR_HUD.alt	1.15639
530172	100	M100:VFR_HUD.alt	1.13447
530516	100	M100:VFR_HUD.alt	1.13979
531096	100	M100:VFR_HUD.alt	1.11841
531629	100	M100:VFR_HUD.alt	1.12671
532195	100	M100:VFR_HUD.alt	1.10694
532545	100	M100:VFR_HUD.alt	1.0744
533077	100	M100:VFR_HUD.alt	1.07088
533640	100	M100:VFR_HUD.alt	1.04907
534159	100	M100:VFR_HUD.alt	1.01449
534708	100	M100:VFR_HUD.alt	1.00705
535103	100	M100:VFR_HUD.alt	0.991059
535638	100	M100:VFR_HUD.alt	0.979344
536186	100	M100:VFR_HUD.alt	0.96306
536529	100	M100:VFR_HUD.alt	0.956794
537066	100	M100:VFR_HUD.alt	0.949655
537605	100	M100:VFR_HUD.alt	0.932223
538138	100	M100:VFR_HUD.alt	0.948712
538536	100	M100:VFR_HUD.alt	0.944253
539084	100	M100:VFR_HUD.alt	0.932558
539631	100	M100:VFR_HUD.alt	0.93701
540039	100	M100:VFR_HUD.alt	0.941963
540557	100	M100:VFR_HUD.alt	0.951483
541107	100	M100:VFR_HUD.alt	0.977492
541640	100	M100:VFR_HUD.alt	0.98318
542189	100	M100:VFR_HUD.alt	0.982827
542581	100	M100:VFR_HUD.alt	1.00037
543128	100	M100:VFR_HUD.alt	1.00244
543675	100	M100:VFR_HUD.alt	1.02321
544097	100	M100:VFR_HUD.alt	1.02144
544566	100	M100:VFR_HUD.alt	1.04265
545115	100	M100:VFR_HUD.alt	1.03917
545647	100	M100:VFR_HUD.alt	1.03982
546039	100	M100:VFR_HUD.alt	1.07089
546589	100	M100:VFR_HUD.alt	1.10945
547124	100	M100:VFR_HUD.alt	1.10869
547659	100	M100:VFR_HUD.alt	1.10487
548238	100	M100:VFR_HUD.alt	1.11238
548551	100	M100:VFR_HUD.alt	1.09677
549097	100	M100:VFR_HUD.alt	1.07427
549683	100	M100:VFR_HUD.alt	1.04201
550014	100	M100:VFR_HUD.alt	1.021
550562	100	M100:VFR_HUD.alt	1.03166
551114	100	M100:VFR_HUD.alt	1.03595
551652	100	M100:VFR_HUD.alt	1.02196
552047	100	M100:VFR_HUD.alt	1.0316
552611	100	M100:VFR_HUD.alt	1.00052
553146	100	M100:VFR_HUD.alt	0.961141
553543	100	M100:VFR_HUD.alt	0.980219
554065	100	M100:VFR_HUD.alt	0.964076
554630	100	M100:VFR_HUD.alt	0.942151
555161	100	M100:VFR_HUD.alt	0.94845
555710	100	M100:VFR_HUD.alt	0.943494
556057	100	M100:VFR_HUD.alt	0.952437
556595	100	M100:VFR_HUD.alt	0.976727
557178	100	M100:VFR_HUD.alt	0.986625
557669	100	M100:VFR_HUD.alt	1.01588
558078	100	M100:VFR_HUD.alt	1.03197
558612	100	M100:VFR_HUD.alt	1.04041
559161	100	M100:VFR_HUD.alt	1.02856
559692	100	M100:VFR_HUD.alt	1.02783
560255	100	M100:VFR_HUD.alt	1.02349
560630	100	M100:VFR_HUD.alt	1.01683
561180	100	M100:VFR_HUD.alt	1.02768
561714	100	M100:VFR_HUD.alt	1.03823
562058	100	M100:VFR_HUD.alt	1.01637
562607	100	M100:VFR_HUD.alt	1.01167
563155	100	M100:VFR_HUD.alt	1.01019
563546	100	M100:VFR_HUD.alt	1.02822
564092	100	M100:VFR_HUD.alt	1.04814
564608	100	M100:VFR_HUD.alt	1.06823
565186	100	M100:VFR_HUD.alt	1.07772
565562	100	M100:VFR_HUD.alt	1.08582
566097	100	M100:VFR_HUD.alt	1.11206
566644	100	M100:VFR_HUD.alt	1.13608
567193	100	M100:VFR_HUD.alt	1.14517
567536	100	M100:VFR_HUD.alt	1.15522
568086	100	M100:VFR_HUD.alt	1.17485
568667	100	M100:VFR_HUD.alt	1.18236
569216	100	M100:VFR_HUD.alt	1.16955
569560	100	M100:VFR_HUD.alt	1.15652
570091	100	M100:VFR_HUD.alt	1.14336
570638	100	M100:VFR_HUD.alt	1.13177
571203	100	M100:VFR_HUD.alt	1.13251
571689	100	M100:VFR_HUD.alt	1.1161
572129	100	M100:VFR_HUD.alt	1.08896
572660	100	M100:VFR_HUD.alt	1.09741
573208	100	M100:VFR_HUD.alt	1.08803
573615	100	M100:VFR_HUD.alt	1.04088
574240	100	M100:VFR_HUD.alt	1.04026
574630	100	M100:VFR_HUD.alt	1.0301
575148	100	M100:VFR_HUD.alt	1.06635
575695	100	M100:VFR_HUD.alt	1.04922
576090	100	M100:VFR_HUD.alt	1.04948
576622	100	M100:VFR_HUD.alt	1.01628
577154	100	M100:VFR_HUD.alt	0.991046
577561	100	M100:VFR_HUD.alt	0.990526
578092	100	M100:VFR_HUD.alt	0.959469
578640	100	M100:VFR_HUD.alt	0.918247
579186	100	M100:VFR_HUD.alt	0.864541
579720	100	M100:VFR_HUD.alt	0.823182
580079	100	M100:VFR_HUD.alt	0.767849
580657	100	M100:VFR_HUD.alt	0.736021
581204	100	M100:VFR_HUD.alt	0.738258
581548	100	M100:VFR_HUD.alt	0.758962
582126	100	M100:VFR_HUD.alt	0.760579
582657	100	M100:VFR_HUD.alt	0.730173
583188	100	M100:VFR_HUD.alt	0.70712
583721	100	M100:VFR_HUD.alt	0.710292
584144	100	M100:VFR_HUD.alt	0.732974
584660	100	M100:VFR_HUD.alt	0.732168
585208	100	M100:VFR_HUD.alt	0.753244
585739	100	M100:VFR_HUD.alt	0.718688
586067	100	M100:VFR_HUD.alt	0.720642
586583	100	M100:VFR_HUD.alt	0.71301
587114	100	M100:VFR_HUD.alt	0.712913
587661	100	M100:VFR_HUD.alt	0.702267
588067	100	M100:VFR_HUD.alt	0.673288
588601	100	M100:VFR_HUD.alt	0.647269
589148	100	M100:VFR_HUD.alt	0.625053
589788	100	M100:VFR_HUD.alt	0.64865
590089	100	M100:VFR_HUD.alt	0.651289
590620	100	M100:VFR_HUD.alt	0.629365
591167	100	M100:VFR_HUD.alt	0.634466
591714	100	M100:VFR_HUD.alt	0.61941
592075	100	M100:VFR_HUD.alt	0.585843
592655	100	M100:VFR_HUD.alt	0.585455
593203	100	M100:VFR_HUD.alt	0.599748
593724	100	M100:VFR_HUD.alt	0.585186
594067	100	M100:VFR_HUD.alt	0.606147
594630	100	M100:VFR_HUD.alt	0.620714
595177	100	M100:VFR_HUD.alt	0.632634
595710	100	M100:VFR_HUD.alt	0.651484
596090	100	M100:VFR_HUD.alt	0.665683
596644	100	M100:VFR_HUD.alt	0.654863
597193	100	M100:VFR_HUD.alt	0.630604
597732	100	M100:VFR_HUD.alt	0.682151
598061	100	M100:VFR_HUD.alt	0.679197
598613	100	M100:VFR_HUD.alt	0.723459
599145	100	M100:VFR_HUD.alt	0.743585
599694	100	M100:VFR_HUD.alt	0.79583
600072	100	M100:VFR_HUD.alt	0.860125
600719	100	M100:VFR_HUD.alt	0.918804
601109	100	M100:VFR_HUD.alt	0.985768
601641	100	M100:VFR_HUD.alt	1.04185
602079	100	M100:VFR_HUD.alt	1.11116
602710	100	M100:VFR_HUD.alt	1.16446
603711	100	M100:VFR_HUD.alt	1.1867
604274	100	M100:VFR_HUD.alt	1.16392
604649	100	M100:VFR_HUD.alt	1.17552
605232	100	M100:VFR_HUD.alt	1.1972
605747	100	M100:VFR_HUD.alt	1.18766
606094	100	M100:VFR_HUD.alt	1.22643
606632	100	M100:VFR_HUD.alt	1.22292
607167	100	M100:VFR_HUD.alt	1.23186
607762	100	M100:VFR_HUD.alt	1.25423
608108	100	M100:VFR_HUD.alt	1.26886
608643	100	M100:VFR_HUD.alt	1.26295
609193	100	M100:VFR_HUD.alt	1.2739
609743	100	M100:VFR_HUD.alt	1.26278
610041	100	M100:VFR_HUD.alt	1.24626
610620	100	M100:VFR_HUD.alt	1.23182
611216	100	M100:VFR_HUD.alt	1.23033
611751	100	M100:VFR_HUD.alt	1.23571
612098	100	M100:VFR_HUD.alt	1.23569
612648	100	M100:VFR_HUD.alt	1.23532
613185	100	M100:VFR_HUD.alt	1.23084
613581	100	M100:VFR_HUD.alt	1.21175
614128	100	M100:VFR_HUD.alt	1.23363
614675	100	M100:VFR_HUD.alt	1.24838
615206	100	M100:VFR_HUD.alt	1.22894
615600	100	M100:VFR_HUD.alt	1.24945
616147	100	M100:VFR_HUD.alt	1.27623
616680	100	M100:VFR_HUD.alt	1.3086
617231	100	M100:VFR_HUD.alt	1.30618
617763	100	M100:VFR_HUD.alt	1.33298
618123	100	M100:VFR_HUD.alt	1.3165
618657	100	M100:VFR_HUD.alt	1.28473
619254	100	M100:VFR_HUD.alt	1.34445
619603	100	M100:VFR_HUD.alt	1.37069
620137	100	M100:VFR_HUD.alt	1.37876
620672	100	M100:VFR_HUD.alt	1.39792
621239	100	M100:VFR_HUD.alt	1.53329
621775	100	M100:VFR_HUD.alt	1.53858
622107	100	M100:VFR_HUD.alt	1.53858
622704	100	M100:VFR_HUD.alt	1.53858
623244	100	M100:VFR_HUD.alt	1.53858
623593	100	M100:VFR_HUD.alt	1.53858
624115	100	M100:VFR_HUD.alt	1.53858
624664	100	M100:VFR_HUD.alt	1.53858
625166	100	M100:VFR_HUD.alt	1.53858
625718	100	M100:VFR_HUD.alt	1.53858
626111	100	M100:VFR_HUD.alt	1.53858
626675	100	M100:VFR_HUD.alt	1.53858
627191	100	M100:VFR_HUD.alt	2.09842
627587	100	M100:VFR_HUD.alt	2.99316
628091	100	M100:VFR_HUD.alt	2.99316
628639	100	M100:VFR_HUD.alt	3.39734
629172	100	M100:VFR_HUD.alt	5.72986
629751	100	M100:VFR_HUD.alt	6.68297
630283	100	M100:VFR_HUD.alt	7.55572
630626	100	M100:VFR_HUD.alt	7.68042
631161	100	M100:VFR_HUD.alt	7.68042
631708	100	M100:VFR_HUD.alt	7.68042
632101	100	M100:VFR_HUD.alt	7.68042
632667	100	M100:VFR_HUD.alt	7.68042
633189	100	M100:VFR_HUD.alt	7.68042
633729	100	M100:VFR_HUD.alt	7.68042
634202	100	M100:VFR_HUD.alt	7.68042
634614	100	M100:VFR_HUD.alt	7.68042
635146	100	M100:VFR_HUD.alt	7.68042
635742	100	M100:VFR_HUD.alt	15.3414
636089	100	M100:VFR_HUD.alt	19.3576
636620	100	M100:VFR_HUD.alt	20.9743
637169	100	M100:VFR_HUD.alt	20.9993
637717	100	M100:VFR_HUD.alt	20.9993
638123	100	M100:VFR_HUD.alt	20.9993
638641	100	M100:VFR_HUD.alt	20.9993
639203	100	M100:VFR_HUD.alt	20.9993
639580	100	M100:VFR_HUD.alt	20.9993
640133	100	M100:VFR_HUD.alt	20.9993
640670	100	M100:VFR_HUD.alt	20.9993
641224	100	M100:VFR_HUD.alt	20.9993
641746	100	M100:VFR_HUD.alt	20.9993
642108	100	M100:VFR_HUD.alt	20.9993
642663	100	M100:VFR_HUD.alt	20.9993
643246	100	M100:VFR_HUD.alt	20.9993
643783	100	M100:VFR_HUD.alt	20.9993
644129	100	M100:VFR_HUD.alt	20.9993
644614	100	M100:VFR_HUD.alt	20.9993
645121	100	M100:VFR_HUD.alt	20.9993
645671	100	M100:VFR_HUD.alt	20.9993
646224	100	M100:VFR_HUD.alt	20.9993
646764	100	M100:VFR_HUD.alt	20.9993
647093	100	M100:VFR_HUD.alt	20.9993
647723	100	M100:VFR_HUD.alt	20.9993
648288	100	M100:VFR_HUD.alt	20.9993
648617	100	M100:VFR_HUD.alt	20.9993
649163	100	M100:VFR_HUD.alt	20.9993
649697	100	M100:VFR_HUD.alt	20.9993
650200	100	M100:VFR_HUD.alt	20.9993
650607	100	M100:VFR_HUD.alt	20.9993
651143	100	M100:VFR_HUD.alt	20.9993
651694	100	M100:VFR_HUD.alt	20.9993
652196	100	M100:VFR_HUD.alt	20.9993
653141	100	M100:VFR_HUD.alt	20.9993
653676	100	M100:VFR_HUD.alt	20.9993
655188	100	M100:VFR_HUD.alt	20.9993
655580	100	M100:VFR_HUD.alt	20.9993
656192	100	M100:VFR_HUD.alt	20.9993
658201	100	M100:VFR_HUD.alt	20.9993
659118	100	M100:VFR_HUD.alt	20.9993
659595	100	M100:VFR_HUD.alt	20.9993
660084	100	M100:VFR_HUD.alt	20.9993
660697	100	M100:VFR_HUD.alt	20.9993
661259	100	M100:VFR_HUD.alt	20.9993
661589	100	M100:VFR_HUD.alt	20.9993
662716	100	M100:VFR_HUD.alt	47.2038
663124	100	M100:VFR_HUD.alt	47.2038
663739	100	M100:VFR_HUD.alt	47.2038
664240	100	M100:VFR_HUD.alt	47.2038
664695	100	M100:VFR_HUD.alt	47.2038
665195	100	M100:VFR_HUD.alt	47.2038
665681	100	M100:VFR_HUD.alt	47.2038
666186	100	M100:VFR_HUD.alt	47.2038
666595	100	M100:VFR_HUD.alt	47.2038
667131	100	M100:VFR_HUD.alt	47.2038
667685	100	M100:VFR_HUD.alt	47.2038
668271	100	M100:VFR_HUD.alt	47.2038
668771	100	M100:VFR_HUD.alt	47.2038
669181	100	M100:VFR_HUD.alt	47.2038
669720	100	M100:VFR_HUD.alt	47.2038
670177	100	M100:VFR_HUD.alt	47.2038
670740	100	M100:VFR_HUD.alt	47.2038
671181	100	M100:VFR_HUD.alt	47.2038
671733	100	M100:VFR_HUD.alt	47.2038
672285	100	M100:VFR_HUD.alt	47.2038
672665	100	M100:VFR_HUD.alt	47.2038
673171	100	M100:VFR_HUD.alt	47.2038
673711	100	M100:VFR_HUD.alt	47.2038
674107	100	M100:VFR_HUD.alt	47.2038
674643	100	M100:VFR_HUD.alt	47.2038
675177	100	M100:VFR_HUD.alt	47.2038
675681	100	M100:VFR_HUD.alt	47.2038
676184	100	M100:VFR_HUD.alt	49.7559
676684	100	M100:VFR_HUD.alt	57.0191
677200	100	M100:VFR_HUD.alt	57.0191
677693	100	M100:VFR_HUD.alt	57.0191
678260	100	M100:VFR_HUD.alt	57.0191
678760	100	M100:VFR_HUD.alt	57.0191
679135	100	M100:VFR_HUD.alt	57.0191
679653	100	M100:VFR_HUD.alt	57.0191
680142	100	M100:VFR_HUD.alt	57.0191
680691	100	M100:VFR_HUD.alt	57.0191
681198	100	M100:VFR_HUD.alt	57.0191
681752	100	M100:VFR_HUD.alt	57.0191
682271	100	M100:VFR_HUD.alt	57.0191
682666	100	M100:VFR_HUD.alt	57.9138
683156	100	M100:VFR_HUD.alt	57.8384
683723	100	M100:VFR_HUD.alt	57.6734
684211	100	M100:VFR_HUD.alt	57.6734
684789	100	M100:VFR_HUD.alt	57.6734
685227	100	M100:VFR_HUD.alt	57.6734
685603	100	M100:VFR_HUD.alt	57.6734
686142	100	M100:VFR_HUD.alt	57.6734
686692	100	M100:VFR_HUD.alt	57.6734
687086	100	M100:VFR_HUD.alt	57.6734
687636	100	M100:VFR_HUD.alt	57.6734
688096	100	M100:VFR_HUD.alt	57.6734
688604	100	M100:VFR_HUD.alt	57.6734
689143	100	M100:VFR_HUD.alt	57.6734
689646	100	M100:VFR_HUD.alt	57.6734
690196	100	M100:VFR_HUD.alt	57.6734
690587	100	M100:VFR_HUD.alt	57.0338
691200	100	M100:VFR_HUD.alt	56.7265
691707	100	M100:VFR_HUD.alt	56.7265
692286	100	M100:VFR_HUD.alt	56.7265
692676	100	M100:VFR_HUD.alt	56.7265
693133	100	M100:VFR_HUD.alt	56.7265
693603	100	M100:VFR_HUD.alt	56.7265
694076	100	M100:VFR_HUD.alt	56.7265
694701	100	M100:VFR_HUD.alt	56.7265
696621	100	M100:VFR_HUD.alt	56.7265
697159	100	M100:VFR_HUD.alt	56.7265
697694	100	M100:VFR_HUD.alt	56.7265
698196	100	M100:VFR_HUD.alt	56.7265
698681	100	M100:VFR_HUD.alt	56.7265
699181	100	M100:VFR_HUD.alt	56.7265
699699	100	M100:VFR_HUD.alt	56.7265
700167	100	M100:VFR_HUD.alt	56.7265
700652	100	M100:VFR_HUD.alt	56.7265
701205	100	M100:VFR_HUD.alt	56.7265
701647	100	M100:VFR_HUD.alt	56.7265
702150	100	M100:VFR_HUD.alt	56.7265
703195	100	M100:VFR_HUD.alt	56.7265
703654	100	M100:VFR_HUD.alt	56.7265
704116	100	M100:VFR_HUD.alt	56.7265
704695	100	M100:VFR_HUD.alt	56.7265
705195	100	M100:VFR_HUD.alt	56.7265
705712	100	M100:VFR_HUD.alt	56.7265
706218	100	M100:VFR_HUD.alt	56.7265
706661	100	M100:VFR_HUD.alt	56.7265
707275	100	M100:VFR_HUD.alt	56.7265
707603	100	M100:VFR_HUD.alt	56.7265
708106	100	M100:VFR_HUD.alt	56.7265
708669	100	M100:VFR_HUD.alt	56.7265
709142	100	M100:VFR_HUD.alt	56.7265
709690	100	M100:VFR_HUD.alt	56.7265
710085	100	M100:VFR_HUD.alt	56.7265
711140	100	M100:VFR_HUD.alt	56.7265
712086	100	M100:VFR_HUD.alt	56.7265
712571	100	M100:VFR_HUD.alt	56.7265
713074	100	M100:VFR_HUD.alt	56.7265
715711	100	M100:VFR_HUD.alt	56.7265
716118	100	M100:VFR_HUD.alt	58.9901
716605	100	M100:VFR_HUD.alt	59.2509
718128	100	M100:VFR_HUD.alt	55.5112
718648	100	M100:VFR_HUD.alt	54.2781
719117	100	M100:VFR_HUD.alt	53.1577
719680	100	M100:VFR_HUD.alt	52.0091
720242	100	M100:VFR_HUD.alt	50.817
720743	100	M100:VFR_HUD.alt	49.834
721243	100	M100:VFR_HUD.alt	49.3179
721743	100	M100:VFR_HUD.alt	49.3179
722165	100	M100:VFR_HUD.alt	49.3179
722668	100	M100:VFR_HUD.alt	49.3179
723174	100	M100:VFR_HUD.alt	49.3179
723706	100	M100:VFR_HUD.alt	49.3179
724159	100	M100:VFR_HUD.alt	43.5528
724644	100	M100:VFR_HUD.alt	42.0898
725144	100	M100:VFR_HUD.alt	41.1516
725598	100	M100:VFR_HUD.alt	40.1338
726145	100	M100:VFR_HUD.alt	39.2037
726601	100	M100:VFR_HUD.alt	38.4482
727720	100	M100:VFR_HUD.alt	36.7974
728191	100	M100:VFR_HUD.alt	36.0081
728650	100	M100:VFR_HUD.alt	35.0366
729139	100	M100:VFR_HUD.alt	34.1681
729623	100	M100:VFR_HUD.alt	33.4968
730158	100	M100:VFR_HUD.alt	32.8512
730598	100	M100:VFR_HUD.alt	32.8512
731198	100	M100:VFR_HUD.alt	32.8512
731706	100	M100:VFR_HUD.alt	31.6137
732206	100	M100:VFR_HUD.alt	30.2344
732753	100	M100:VFR_HUD.alt	29.8507
733196	100	M100:VFR_HUD.alt	29.8507
733794	100	M100:VFR_HUD.alt	29.8507
734127	100	M100:VFR_HUD.alt	29.8507
734646	100	M100:VFR_HUD.alt	29.8507
735148	100	M100:VFR_HUD.alt	29.8507
735604	100	M100:VFR_HUD.alt	29.8507
736156	100	M100:VFR_HUD.alt	29.8507
736689	100	M100:VFR_HUD.alt	29.8507
737242	100	M100:VFR_HUD.alt	29.8507
737635	100	M100:VFR_HUD.alt	29.8507
738235	100	M100:VFR_HUD.alt	29.8507
738693	100	M100:VFR_HUD.alt	29.8507
739163	100	M100:VFR_HUD.alt	29.8507
739712	100	M100:VFR_HUD.alt	29.8507
740244	100	M100:VFR_HUD.alt	29.8507
740760	100	M100:VFR_HUD.alt	29.8507
741121	100	M100:VFR_HUD.alt	29.8507
741655	100	M100:VFR_HUD.alt	29.8507
742159	100	M100:VFR_HUD.alt	29.8507
742659	100	M100:VFR_HUD.alt	28.9529
743191	100	M100:VFR_HUD.alt	28.8478
743740	100	M100:VFR_HUD.alt	29.3662
744224	100	M100:VFR_HUD.alt	29.9174
744630	100	M100:VFR_HUD.alt	30.6879
745133	100	M100:VFR_HUD.alt	31.4595
745632	100	M100:VFR_HUD.alt	32.0279
746181	100	M100:VFR_HUD.alt	32.4148
746731	100	M100:VFR_HUD.alt	32.4148
747121	100	M100:VFR_HUD.alt	32.4148
747734	100	M100:VFR_HUD.alt	32.4148
748129	100	M100:VFR_HUD.alt	32.4148
748709	100	M100:VFR_HUD.alt	32.4148
749213	100	M100:VFR_HUD.alt	32.4148
749749	100	M100:VFR_HUD.alt	32.4148
750140	100	M100:VFR_HUD.alt	32.4148
750642	100	M100:VFR_HUD.alt	32.4148
751142	100	M100:VFR_HUD.alt	32.4148
751643	100	M100:VFR_HUD.alt	32.4148
752161	100	M100:VFR_HUD.alt	32.4148
752646	100	M100:VFR_HUD.alt	32.4148
753147	100	M100:VFR_HUD.alt	32.4148
753697	100	M100:VFR_HUD.alt	32.4148
754245	100	M100:VFR_HUD.alt	32.4148
754640	100	M100:VFR_HUD.alt	32.4148
755173	100	M100:VFR_HUD.alt	32.4148
755705	100	M100:VFR_HUD.alt	32.4148
756306	100	M100:VFR_HUD.alt	32.4148
756747	100	M100:VFR_HUD.alt	32.4148
757234	100	M100:VFR_HUD.alt	32.4148
757725	100	M100:VFR_HUD.alt	32.4148
758135	100	M100:VFR_HUD.alt	32.4148
758660	100	M100:VFR_HUD.alt	32.4148
759210	100	M100:VFR_HUD.alt	32.4148
759758	100	M100:VFR_HUD.alt	32.4148
760201	100	M100:VFR_HUD.alt	32.4148
760708	100	M100:VFR_HUD.alt	32.4148
761150	100	M100:VFR_HUD.alt	32.4148
761685	100	M100:VFR_HUD.alt	32.4148
762235	100	M100:VFR_HUD.alt	32.4148
762775	100	M100:VFR_HUD.alt	32.4148
763139	100	M100:VFR_HUD.alt	32.4148
763723	100	M100:VFR_HUD.alt	32.4148
764262	100	M100:VFR_HUD.alt	32.4148
764798	100	M100:VFR_HUD.alt	32.4148
765162	100	M100:VFR_HUD.alt	32.4148
765697	100	M100:VFR_HUD.alt	32.4148
766250	100	M100:VFR_HUD.alt	32.4148
766789	100	M100:VFR_HUD.alt	32.4148
767184	100	M100:VFR_HUD.alt	32.4148
767705	100	M100:VFR_HUD.alt	32.4148
768212	100	M100:VFR_HUD.alt	32.4148
768722	100	M100:VFR_HUD.alt	32.4148
769277	100	M100:VFR_HUD.alt	32.4148
769702	100	M100:VFR_HUD.alt	32.4148
770302	100	M100:VFR_HUD.alt	32.4148
770726	100	M100:VFR_HUD.alt	32.4148
771187	100	M100:VFR_HUD.alt	32.4148
771694	100	M100:VFR_HUD.alt	32.4148
772212	100	M100:VFR_HUD.alt	32.4148
772641	100	M100:VFR_HUD.alt	32.4148
773146	100	M100:VFR_HUD.alt	32.4148
773640	100	M100:VFR_HUD.alt	32.4148
774112	100	M100:VFR_HUD.alt	32.4148
774604	100	M100:VFR_HUD.alt	32.4148
775726	100	M100:VFR_HUD.alt	32.4148
778628	100	M100:VFR_HUD.alt	32.4148
779177	100	M100:VFR_HUD.alt	32.4148
779666	100	M100:VFR_HUD.alt	32.4148
780196	100	M100:VFR_HUD.alt	32.4148
780612	100	M100:VFR_HUD.alt	32.4148
781206	100	M100:VFR_HUD.alt	32.4148
782614	100	M100:VFR_HUD.alt	32.4148
783141	100	M100:VFR_HUD.alt	32.4148
783655	100	M100:VFR_HUD.alt	32.4148
784124	100	M100:VFR_HUD.alt	32.4148
784715	100	M100:VFR_HUD.alt	32.4148
785243	100	M100:VFR_HUD.alt	32.4148
785651	100	M100:VFR_HUD.alt	32.4148
786190	100	M100:VFR_HUD.alt	32.4148
786743	100	M100:VFR_HUD.alt	32.4148
787279	100	M100:VFR_HUD.alt	32.4148
787628	100	M100:VFR_HUD.alt	32.4148
788163	100	M100:VFR_HUD.alt	32.4148
788749	100	M100:VFR_HUD.alt	32.4148
789281	100	M100:VFR_HUD.alt	32.4148
789647	100	M100:VFR_HUD.alt	32.4148
790188	100	M100:VFR_HUD.alt	32.4148
790740	100	M100:VFR_HUD.alt	32.4148
791228	100	M100:VFR_HUD.alt	32.4148
791729	100	M100:VFR_HUD.alt	26.8635
792277	100	M100:VFR_HUD.alt	22.0757
792620	100	M100:VFR_HUD.alt	18.9303
793151	100	M100:VFR_HUD.alt	18.6648
793699	100	M100:VFR_HUD.alt	18.734
794298	100	M100:VFR_HUD.alt	18.9233
794798	100	M100:VFR_HUD.alt	19.35
795142	100	M100:VFR_HUD.alt	19.6197
795691	100	M100:VFR_HUD.alt	19.8716
796213	100	M100:VFR_HUD.alt	19.8716
796622	100	M100:VFR_HUD.alt	19.8716
797204	100	M100:VFR_HUD.alt	19.8716
797660	100	M100:VFR_HUD.alt	19.8716
798162	100	M100:VFR_HUD.alt	19.8716
798623	100	M100:VFR_HUD.alt	19.8716
799299	100	M100:VFR_HUD.alt	19.8716
799752	100	M100:VFR_HUD.alt	23.0635
800253	100	M100:VFR_HUD.alt	23.0635
800743	100	M100:VFR_HUD.alt	23.0635
801309	100	M100:VFR_HUD.alt	23.0635
801747	100	M100:VFR_HUD.alt	23.0635
802268	100	M100:VFR_HUD.alt	23.0635
802646	100	M100:VFR_HUD.alt	23.0635
803199	100	M100:VFR_HUD.alt	23.0635
803686	100	M100:VFR_HUD.alt	23.0635
804251	100	M100:VFR_HUD.alt	23.0635
804786	100	M100:VFR_HUD.alt	23.0635
805117	100	M100:VFR_HUD.alt	23.0635
805682	100	M100:VFR_HUD.alt	23.0635
806219	100	M100:VFR_HUD.alt	23.0635
806738	100	M100:VFR_HUD.alt	23.0635
807146	100	M100:VFR_HUD.alt	23.0635
807732	100	M100:VFR_HUD.alt	23.0635
808189	100	M100:VFR_HUD.alt	23.0635
808727	100	M100:VFR_HUD.alt	23.0635
809750	100	M100:VFR_HUD.alt	23.0635
810144	100	M100:VFR_HUD.alt	23.0635
810692	100	M100:VFR_HUD.alt	23.0635
811180	100	M100:VFR_HUD.alt	23.0635
811747	100	M100:VFR_HUD.alt	23.0635
812287	100	M100:VFR_HUD.alt	23.0635
812795	100	M100:VFR_HUD.alt	23.0635
813304	100	M100:VFR_HUD.alt	23.0635
813649	100	M100:VFR_HUD.alt	23.0635
814157	100	M100:VFR_HUD.alt	23.0635
815211	100	M100:VFR_HUD.alt	23.0635
817135	100	M100:VFR_HUD.alt	23.0635
821121	100	M100:VFR_HUD.alt	23.0635
822115	100	M100:VFR_HUD.alt	23.0635
823122	100	M100:VFR_HUD.alt	23.0635
824117	100	M100:VFR_HUD.alt	23.0635
827152	100	M100:VFR_HUD.alt	23.0635
827635	100	M100:VFR_HUD.alt	23.0635
828697	100	M100:VFR_HUD.alt	23.0635
829794	100	M100:VFR_HUD.alt	23.0635
832107	100	M100:VFR_HUD.alt	23.0635
833158	100	M100:VFR_HUD.alt	23.0635
833730	100	M100:VFR_HUD.alt	23.0635
834241	100	M100:VFR_HUD.alt	23.0635
834642	100	M100:VFR_HUD.alt	23.0635
835201	100	M100:VFR_HUD.alt	23.0635
835750	100	M100:VFR_HUD.alt	23.0635
836708	100	M100:VFR_HUD.alt	23.0635
837671	100	M100:VFR_HUD.alt	23.0635
838220	100	M100:VFR_HUD.alt	23.0635
838709	100	M100:VFR_HUD.alt	23.0635
839651	100	M100:VFR_HUD.alt	23.0635
840327	100	M100:VFR_HUD.alt	23.0635
840660	100	M100:VFR_HUD.alt	23.0635
841164	100	M100:VFR_HUD.alt	16.3034
841698	100	M100:VFR_HUD.alt	13.0568
842170	100	M100:VFR_HUD.alt	11.9569
842718	100	M100:VFR_HUD.alt	nan
843306	100	M100:VFR_HUD.alt	nan
843635	100	M100:VFR_HUD.alt	nan
844153	100	M100:VFR_HUD.alt	nan
844688	100	M100:VFR_HUD.alt	nan
845228	100	M100:VFR_HUD.alt	nan
845668	100	M100:VFR_HUD.alt	nan
846173	100	M100:VFR_HUD.alt	nan
846678	100	M100:VFR_HUD.alt	nan
847217	100	M100:VFR_HUD.alt	nan
847719	100	M100:VFR_HUD.alt	nan
848269	100	M100:VFR_HUD.alt	nan
848769	100	M100:VFR_HUD.alt	nan
849227	100	M100:VFR_HUD.alt	nan
849732	100	M100:VFR_HUD.alt	nan
850127	100	M100:VFR_HUD.alt	nan
850629	100	M100:VFR_HUD.alt	nan
851182	100	M100:VFR_HUD.alt	nan
851719	100	M100:VFR_HUD.alt	nan
852253	100	M100:VFR_HUD.alt	nan
852807	100	M100:VFR_HUD.alt	nan
853139	100	M100:VFR_HUD.alt	nan
853675	100	M100:VFR_HUD.alt	nan
854284	100	M100:VFR_HUD.alt	nan
854628	100	M100:VFR_HUD.alt	nan
855145	100	M100:VFR_HUD.alt	nan
855708	100	M100:VFR_HUD.alt	nan
856192	100	M100:VFR_HUD.alt	nan
856664	100	M100:VFR_HUD.alt	nan
857200	100	M100:VFR_HUD.alt	nan
857720	100	M100:VFR_HUD.alt	nan
858204	100	M100:VFR_HUD.alt	nan
858769	100	M100:VFR_HUD.alt	nan
859160	100	M100:VFR_HUD.alt	nan
859629	100	M100:VFR_HUD.alt	nan
860208	100	M100:VFR_HUD.alt	nan
860740	100	M100:VFR_HUD.alt	nan
861303	100	M100:VFR_HUD.alt	nan
861647	100	M100:VFR_HUD.alt	nan
862197	100	M100:VFR_HUD.alt	nan
862731	100	M100:VFR_HUD.alt	nan
863281	100	M100:VFR_HUD.alt	nan
863659	100	M100:VFR_HUD.alt	nan
864207	100	M100:VFR_HUD.alt	nan
864740	100	M100:VFR_HUD.alt	nan
865240	100	M100:VFR_HUD.alt	nan
865790	100	M100:VFR_HUD.alt	nan
866122	100	M100:VFR_HUD.alt	nan
866671	100	M100:VFR_HUD.alt	nan
867204	100	M100:VFR_HUD.alt	nan
867628	100	M100:VFR_HUD.alt	nan
868152	100	M100:VFR_HUD.alt	nan
868688	100	M100:VFR_HUD.alt	nan
869235	100	M100:VFR_HUD.alt	nan
869643	100	M100:VFR_HUD.alt	nan
870127	100	M100:VFR_HUD.alt	nan
870695	100	M100:VFR_HUD.alt	nan
871232	100	M100:VFR_HUD.alt	nan
871768	100	M100:VFR_HUD.alt	nan
872254	100	M100:VFR_HUD.alt	nan
872661	100	M100:VFR_HUD.alt	nan
873244	100	M100:VFR_HUD.alt	nan
